[{"code":"muto","name":"Mutoko","lat":-17.40452552,"lon":32.21956895,"latency_ms":null,"msg_rate":0.0,"stale":true,"last_vtec":0.0},{"code":"mata","name":"Mataga","lat":-20.84527778,"lon":30.19333333,"latency_ms":null,"msg_rate":0.0,"stale":true,"last_vtec":0.0},{"code":"muta","name":"Mutare","lat":-18.97829762,"lon":32.67722325,"latency_ms":null,"msg_rate":0.0,"stale":true,"last_vtec":0.0},{"code":"bula","name":"Bulawayo","lat":-20.16531328,"lon":28.64114319,"latency_ms":null,"msg_rate":0.0,"stale":true,"last_vtec":0.0},{"code":"gwer","name":"Gweru","lat":-19.51195226,"lon":29.84053989,"latency_ms":null,"msg_rate":0.0,"stale":true,"last_vtec":0.0},{"code":"hacy","name":"Harare City","lat":-17.825166,"lon":31.033511,"latency_ms":null,"msg_rate":0.0,"stale":true,"last_vtec":0.0},{"code":"masv","name":"Masvingo","lat":-20.08775776,"lon":30.83149252,"latency_ms":null,"msg_rate":0.0,"stale":true,"last_vtec":0.0},{"code":"hara","name":"Harare","lat":-17.78140871,"lon":31.04856188,"latency_ms":null,"msg_rate":0.0,"stale":true,"last_vtec":0.0},{"code":"zinh","name":"ZINGSA HQ","lat":-17.78483089,"lon":31.05063364,"latency_ms":null,"msg_rate":0.0,"stale":true,"last_vtec":0.0},{"code":"lupa","name":"Lupane","lat":-18.94696921,"lon":27.76074133,"latency_ms":1.9,"msg_rate":10.04,"stale":false,"last_vtec":0.0},{"code":"cent","name":"Centenary","lat":-16.73144103,"lon":31.11882966,"latency_ms":null,"msg_rate":0.0,"stale":true,"last_vtec":0.0},{"code":"karo","name":"Karoi","lat":-16.81896637,"lon":29.68364577,"latency_ms":null,"msg_rate":0.0,"stale":true,"last_vtec":0.0},{"code":"kwek","name":"Kwekwe","lat":-18.93450249,"lon":29.80392498,"latency_ms":null,"msg_rate":0.0,"stale":true,"last_vtec":0.0},{"code":"gokw","name":"Gokwe","lat":-18.21248449,"lon":28.932072,"latency_ms":null,"msg_rate":0.0,"stale":true,"last_vtec":0.0},{"code":"gsu","name":"GSU","lat":-20.43602472,"lon":29.27481487,"latency_ms":null,"msg_rate":0.0,"stale":true,"last_vtec":0.0},{"code":"chir","name":"Chiredzi","lat":-21.04512914,"lon":31.6686449,"latency_ms":null,"msg_rate":0.0,"stale":true,"last_vtec":0.0},{"code":"chim","name":"Chimanimani","lat":-19.80266433,"lon":32.87045111,"latency_ms":null,"msg_rate":0.0,"stale":true,"last_vtec":0.0},{"code":"chiv","name":"Chivhu","lat":-19.01795928,"lon":30.89528957,"latency_ms":null,"msg_rate":0.0,"stale":true,"last_vtec":0.0},{"code":"kari","name":"Kariba","lat":-16.51946232,"lon":28.79036193,"latency_ms":null,"msg_rate":0.0,"stale":true,"last_vtec":0.0},{"code":"tsho","name":"Tsholotsho","lat":-19.77047206,"lon":27.7608916,"latency_ms":null,"msg_rate":0.0,"stale":true,"last_vtec":0.0},{"code":"vicf","name":"Victoria Falls","lat":-17.92673716,"lon":25.84053994,"latency_ms":null,"msg_rate":0.0,"stale":true,"last_vtec":0.0},{"code":"gutu","name":"Gutu","lat":-19.646095,"lon":31.14708901,"latency_ms":null,"msg_rate":0.0,"stale":true,"last_vtec":0.0},{"code":"beit","name":"Beitbridge","lat":-22.21018295,"lon":29.99524904,"latency_ms":null,"msg_rate":0.0,"stale":true,"last_vtec":0.0},{"code":"bing","name":"Binga","lat":-17.6250928,"lon":27.33817181,"latency_ms":null,"msg_rate":0.0,"stale":true,"last_vtec":0.0}]